{"departures":{"Japan":{"number":{"airports":8,"flights":12},"airports":{"AXT":{"name":"Akita Airport","city":"Akita","icao":"RJSK","distance":708981,"flights":{"JL2179":{"utc":{"2019-05-01":{"aircraft":"E190","time":"07:40","timestamp":1556696400,"offset":32400}}}},"position":{"lat":"39.615551","lon":"140.218597"}},"FUK":{"name":"Fukuoka Airport","city":"Fukuoka","icao":"RJFF","distance":454529,"flights":{"JL2061":{"utc":{"2019-05-01":{"aircraft":"E170","time":"11:10","timestamp":1556709000,"offset":32400}}}},"position":{"lat":"33.585941","lon":"130.450607"}},"HNA":{"name":"Hanamaki Airport","city":"Hanamaki","icao":"RJSI","distance":747769,"flights":{"JL2183":{"utc":{"2019-05-01":{"aircraft":"E170","time":"01:35","timestamp":1556674500,"offset":32400}}}},"position":{"lat":"39.428612","lon":"141.135193"}},"KOJ":{"name":"Kagoshima Airport","city":"Kagoshima","icao":"RJFK","distance":523854,"flights":{"JL2403":{"utc":{"2019-05-01":{"aircraft":"E190","time":"00:15","timestamp":1556669700,"offset":32400}}},"JL2407":{"utc":{"2019-05-01":{"aircraft":"E190","time":"01:45","timestamp":1556675100,"offset":32400}}}},"position":{"lat":"31.803391","lon":"130.719406"}},"MYJ":{"name":"Matsuyama Airport","city":"Matsuyama","icao":"RJOM","distance":248717,"flights":{"JL2305":{"utc":{"2019-05-01":{"aircraft":"E170","time":"02:25","timestamp":1556677500,"offset":32400}}},"JL2309":{"utc":{"2019-05-01":{"aircraft":"E170","time":"09:15","timestamp":1556702100,"offset":32400}}}},"position":{"lat":"33.827221","lon":"132.699707"}},"KMI":{"name":"Miyazaki Airport","city":"Miyazaki","icao":"RJFM","distance":465857,"flights":{"JL2437":{"utc":{"2019-05-01":{"aircraft":"E190","time":"03:40","timestamp":1556682000,"offset":32400}}}},"position":{"lat":"31.877220","lon":"131.448593"}},"NGS":{"name":"Nagasaki Airport","city":"Nagasaki","icao":"RJFU","distance":526475,"flights":{"JL2373":{"utc":{"2019-05-01":{"aircraft":"E190","time":"00:15","timestamp":1556669700,"offset":32400}}}},"position":{"lat":"32.916939","lon":"129.913605"}},"SDJ":{"name":"Sendai Airport","city":"Sendai","icao":"RJSS","distance":641445,"flights":{"JL2203":{"utc":{"2019-05-01":{"aircraft":"E190","time":"00:30","timestamp":1556670600,"offset":32400}}},"JL2207":{"utc":{"2019-05-01":{"aircraft":"E190","time":"04:35","timestamp":1556685300,"offset":32400}}},"JL2209":{"utc":{"2019-05-01":{"aircraft":"E170","time":"06:25","timestamp":1556691900,"offset":32400}}}},"position":{"lat":"38.139721","lon":"140.916901"}}}}}}
